[
	{"name":"Royal Globe Insurance\nBuilding","latitude":37.792256859116456,"longitude":-122.40124230392082},
	{"name":"Southern Police Station","latitude":37.7811721655499,"longitude":-122.40068211615055},
	{"name":"Dennis T. Sullivan Memorial Home","latitude":37.79008695523312,"longitude":-122.41161845316405},
	{"name":"James Flood Building","latitude":37.78511093187336,"longitude":-122.4074226696119},
	{"name":"Beach Chalet","latitude":37.7692999872236,"longitude":-122.51019787467679},
	{"name":"Ghirardelli Square","latitude":37.805857922404854,"longitude":-122.4229251823128},
	{"name":"Japanese YWCA/Issei Women's Building","latitude":37.786710023421534,"longitude":-122.43061369957688},
	{"name":"Firehouse Engine Co. #2, Truck\n#6","latitude":37.773301136738,"longitude":-122.43836622457151},
	{"name":"City Cemetery","latitude":37.7842583945408,"longitude":-122.49832263211921},
	{"name":"Hotel Utah","latitude":37.77929289433018,"longitude":-122.39813117878583},
	{"name":"Japanese American Citizen League","latitude":37.78635439640812,"longitude":-122.42928609120467},
	{"name":"Community Thrift","latitude":37.762780559460765,"longitude":-122.4213652175569},
	{"name":"State Armory & Arsenal","latitude":37.76781719434997,"longitude":-122.42057533530219},
	{"name":"Tanforan Cottage","latitude":37.765903843813106,"longitude":-122.42704045971614},
	{"name":"Doggie Diner Sign","latitude":37.73546194023939,"longitude":-122.50296296162006},
	{"name":null,"latitude":null,"longitude":null},
	{"name":"Columbia Savings Bank Building","latitude":37.79574738093425,"longitude":-122.40300598464047},
	{"name":"Bank of California","latitude":37.793304287973534,"longitude":-122.4014589970232},
	{"name":"Westerfeld House","latitude":37.77732342120205,"longitude":-122.43636904573553},
	{"name":"Ellinwood House","latitude":37.7922873376443,"longitude":-122.44093709122735},
	{"name":"S.F. Art Institute","latitude":37.80373775975729,"longitude":-122.41719027966393},
	{"name":"Forest Hill Muni Station","latitude":37.747864694926434,"longitude":-122.45931868818174},
	{"name":"V. C. Morris Building","latitude":37.788265440877154,"longitude":-122.40589012579557},
	{"name":"Hibernia \"Beach\" Bank Building","latitude":37.76076298935163,"longitude":-122.43471381627852},
	{"name":"Earle C. Anthony Packard Showroom","latitude":37.784001921881284,"longitude":-122.42169433090459},
	{"name":"Dutch Windmill (North\nWindmill)","latitude":37.770443991986,"longitude":-122.5094017154921},
	{"name":"S.F. & San Mateo Railroad Co.\nOffice Building","latitude":37.719956760873266,"longitude":-122.44633293493244},
	{"name":"Charles L. Hinkel House and Carriage House","latitude":37.7718201503793,"longitude":-122.43676827071988},
	{"name":"Havens Mansion and Carriage House","latitude":37.75114839293498,"longitude":-122.41578816808209},
	{"name":"South S.F. Opera House &\nMasonic Hall","latitude":37.735004241114325,"longitude":-122.39017247060796},
	{"name":"Sacred Heart Parish Complex","latitude":37.774330646703966,"longitude":-122.43024983003903},
	{"name":"John McMullen Residence","latitude":37.75785844692179,"longitude":-122.42313474212742},
	{"name":"California Hall","latitude":37.782406734289985,"longitude":-122.41939567421919},
	{"name":"The Kohl Building (Alvinza\nHayward Building)","latitude":37.79314864051704,"longitude":-122.40256717552678},
	{"name":"Haas-Lilienthal House","latitude":37.793250211954124,"longitude":-122.42495931834101},
	{"name":"New Pullman Hotel","latitude":37.77826500620855,"longitude":-122.393881905096},
	{"name":"Russell House","latitude":37.78920363409292,"longitude":-122.45536096158206},
	{"name":"Medico-Dental Building","latitude":37.79631650733527,"longitude":-122.40248045263311},
	{"name":"Hibernia Bank","latitude":37.78137383334532,"longitude":-122.41243480515753},
	{"name":"Whittier Mansion","latitude":37.79341523507482,"longitude":-122.42942822511844},
	{"name":"Royal Baking Company","latitude":37.72186355906573,"longitude":-122.43654605702208},
	{"name":"Marina Branch Library","latitude":37.802124903618655,"longitude":-122.43313532888374},
	{"name":"Theodore Green Apothecary","latitude":37.77422182778898,"longitude":-122.43736365621834},
	{"name":"Gibb-Sanborn Warehouse,\nNorth Pelican Paper","latitude":37.79985460629215,"longitude":-122.40046480036004},
	{"name":"Genella Building/Belli Annex","latitude":37.79615288360898,"longitude":-122.40310979732885},
	{"name":"Golden Gate Bridge","latitude":37.81771315511747,"longitude":-122.47827968219188},
	{"name":"Golden Gate Valley Carnegie Library","latitude":37.796788827518164,"longitude":-122.42902347019445},
	{"name":"Mattachine Society Headquarters","latitude":37.78629049292384,"longitude":-122.40137519602935},
	{"name":"Koshland House","latitude":37.789135696675544,"longitude":-122.45597194276311},
	{"name":"Saint Patrick's Church","latitude":37.78554059537794,"longitude":-122.4035284564207},
	{"name":"Potrero Hill Neighborhood\nHouse","latitude":37.75826710092795,"longitude":-122.40064528584907},
	{"name":"Sunshine School","latitude":37.750432483538795,"longitude":-122.40939655056222},
	{"name":"Excelsior Branch Library","latitude":37.72713052124055,"longitude":-122.4333154094048},
	{"name":"James Lick Baths/People's Laundry Building","latitude":37.77467684539035,"longitude":-122.41468519159132},
	{"name":"Geary Theater","latitude":37.78680699494596,"longitude":-122.41020867570954},
	{"name":"Crispus Attucks Club / Bayview Community Center","latitude":37.73558036675975,"longitude":-122.38916822390381},
	{"name":"St. Joseph's Catholic Church","latitude":37.77356200356656,"longitude":-122.41429882242443},
	{"name":"Ohabai Shalome/Bush Street\nTemple","latitude":37.78743836818495,"longitude":-122.42813390451533},
	{"name":"New Era Hall","latitude":37.76682151550561,"longitude":-122.4292624020196},
	{"name":"Bank Of Lucas; Turner &\nCompany","latitude":37.796592067567985,"longitude":-122.40332043799818},
	{"name":"Park Emergency Hospital","latitude":37.76698025681092,"longitude":-122.45330044451468},
	{"name":"Madame C J Walker House (Home for Girls)","latitude":37.788714323984934,"longitude":-122.42988982052496},
	{"name":"\"History of Medicine in California\" Frescoes at UC Hall","latitude":37.76252243359055,"longitude":-122.46015128979059},
	{"name":"\"The Allegory of California\" Mural","latitude":37.791648297067674,"longitude":-122.40124173196523},
	{"name":"Golden Gate Commandery of the Knights Templar (Macedonia Missionary Baptist Church)","latitude":37.785511221500904,"longitude":-122.43553749616663},
	{"name":"Richard E. Queen House","latitude":37.790636952058435,"longitude":-122.42985079113755},
	{"name":"Peace Pagoda / Plaza","latitude":37.785210433051255,"longitude":-122.42974965875779},
	{"name":"Audiffred Building","latitude":37.793320448866105,"longitude":-122.39276140922763},
	{"name":"Axford House","latitude":37.749963130045934,"longitude":-122.4320087013738},
	{"name":"Brandenstein (Bransten)\nHouse","latitude":37.79066640311672,"longitude":-122.42437317329748},
	{"name":"Chata Gutierrez Mural","latitude":37.7522404260091,"longitude":-122.41575388357653},
	{"name":"Theodore Roosavelt Middle School","latitude":37.7822814700375,"longitude":-122.4583548481654},
	{"name":"Office of Dr. Carlton B. Goodlett","latitude":37.78659083023659,"longitude":-122.433669040986},
	{"name":"One Montgomery Street (Crocker National Bank Building)","latitude":37.78938506824232,"longitude":-122.40244650470422},
	{"name":"The McCormick House","latitude":37.76271804892,"longitude":-122.4362266619426},
	{"name":"The Jose Theater/Names\nProject Building","latitude":37.76342830465895,"longitude":-122.43463765728379},
	{"name":"Hotaling Annex-East","latitude":37.79629999963437,"longitude":-122.40261205384178},
	{"name":"Our Lady of Guadalupe Church","latitude":37.79747523267864,"longitude":-122.41237504769771},
	{"name":"Alfred G. Hanson Residence","latitude":37.78697286932335,"longitude":-122.48705763872307},
	{"name":"Sunset Branch Library","latitude":37.76296656848746,"longitude":-122.4765411207566},
	{"name":"Belt Line Railroad Roundhouse\nComplex","latitude":37.804427190634236,"longitude":-122.40304529779776},
	{"name":"Hills Brothers Coffee Plant","latitude":37.789803295121025,"longitude":-122.38975739871995},
	{"name":"Balboa High School","latitude":37.721143581506524,"longitude":-122.44139726140756},
	{"name":"Castro Theater","latitude":37.76201294042689,"longitude":-122.43469620830356},
	{"name":"Frank M. Stone House","latitude":37.751611036029615,"longitude":-122.41653009690152},
	{"name":"Atkinson-Escher House","latitude":37.797145445567,"longitude":-122.41433094459906},
	{"name":"Italian American Bank","latitude":37.79361352980514,"longitude":-122.40258424501789},
	{"name":"The Mechanics Institute","latitude":37.788746824853376,"longitude":-122.40303372194325},
	{"name":"Path Of Gold Light Standards","latitude":37.77808495600061,"longitude":-122.41555796381509},
	{"name":"Casa Sanchez","latitude":37.75310690806127,"longitude":-122.40780564421496},
	{"name":"Saint Peters Catholic Church","latitude":37.75225248025253,"longitude":-122.41050031476733},
	{"name":"Sam Jordan's Bar","latitude":37.74106131223183,"longitude":-122.38886215145317},
	{"name":"Mission High School","latitude":37.76201921096667,"longitude":-122.42730642161182},
	{"name":"North End Police Station and Garage","latitude":37.79812992834497,"longitude":-122.44026424244129},
	{"name":"SF General Hospital","latitude":37.755637021611335,"longitude":-122.4051019323997},
	{"name":"Lawn Bowling Clubhouse and Greens","latitude":37.76883712515319,"longitude":-122.45906815004476},
	{"name":"Leale House","latitude":37.79291383783445,"longitude":-122.43589801341315},
	{"name":"Western Addition Branch Library","latitude":37.784100540928186,"longitude":-122.43758030507418},
	{"name":"Hotaling Stables Building","latitude":37.7961333788118,"longitude":-122.40263096244381},
	{"name":"Marsden Kershaw House","latitude":37.757708587198195,"longitude":-122.42316041684717},
	{"name":"Murphy Windmill and Millwright's Cottage","latitude":37.76507100800138,"longitude":-122.50856163833379},
	{"name":"Eureka Valley/Harvey Milk Memorial Branch Library","latitude":37.76400868520174,"longitude":-122.43196133951578},
	{"name":"Jackson Brewery Co. Complex","latitude":37.771703029049455,"longitude":-122.41339072466286},
	{"name":"Schoenstein & Co. Pipe Organ\nBuilding","latitude":37.75884465554506,"longitude":-122.41169967125086},
	{"name":"St. Francis of Assisi Church","latitude":37.79899907122218,"longitude":-122.40770282795027},
	{"name":"Howard/26th Street Cottages","latitude":37.74945783489386,"longitude":-122.4156387880667},
	{"name":"Phillips Building","latitude":37.78773328615655,"longitude":-122.39566345611489},
	{"name":"Miller-Joost House","latitude":37.759141152314584,"longitude":-122.44525777394581},
	{"name":"Casebolt House","latitude":37.79521439887549,"longitude":-122.43895521700115},
	{"name":"St. Brigid's Church","latitude":37.79538047305749,"longitude":-122.4238659382239},
	{"name":"Third Baptist Church Complex","latitude":37.777921694698534,"longitude":-122.43463067621364},
	{"name":"Calvary Presbyterian Church","latitude":37.79271204691981,"longitude":-122.43509034939136},
	{"name":"Mills Building & Tower","latitude":37.791337391014295,"longitude":-122.40179262305533},
	{"name":"Richmond Branch Carnegie Library","latitude":37.78184397462174,"longitude":-122.46809908630715},
	{"name":"Julius Castle","latitude":37.803051186528975,"longitude":-122.40505326981483},
	{"name":"Market Street Railway\nSubstation","latitude":37.78038730135525,"longitude":-122.43175176313858},
	{"name":"Lyon Martin House","latitude":37.74539159034108,"longitude":-122.43450392973402},
	{"name":"St. James Presbyterian Church","latitude":37.71302277718293,"longitude":-122.40824354252287},
	{"name":"Sheet Metal Workers' Union Hall","latitude":37.76754588573401,"longitude":-122.4247391744233},
	{"name":"Fairmont Hotel","latitude":37.79242534892291,"longitude":-122.41009254869326},
	{"name":"Black Cat Cafe","latitude":37.783914353557606,"longitude":-122.41446486393575},
	{"name":"Notre Dame Des Victoires Church & Rector","latitude":37.79072392726274,"longitude":-122.40656177696707},
	{"name":"Ingleside Terraces Sundial and Sundial Park","latitude":37.724687351334204,"longitude":-122.4687470888608},
	{"name":"Langerman's Building/Belli Building","latitude":37.79607057596091,"longitude":-122.40309546204408},
	{"name":"Hunters Point Springs & Albion Brewery","latitude":37.7314533062461,"longitude":-122.3756337650952},
	{"name":"Engine Co. #8, Truck Co. #4","latitude":37.795194614710354,"longitude":-122.42241238781524},
	{"name":"Coit Tower","latitude":37.80227941480924,"longitude":-122.40584549405122},
	{"name":"First Congregational Church","latitude":37.78784002286521,"longitude":-122.40969757590021},
	{"name":"Hallidie Building","latitude":37.790237277404046,"longitude":-122.40303969416335},
	{"name":"Filmore Auditorium","latitude":37.78391754953435,"longitude":-122.433119582126},
	{"name":"S.F. Conservatory of Music","latitude":37.75198745093848,"longitude":-122.47682767623954},
	{"name":"Frank G. Edwards House","latitude":37.74927190648687,"longitude":-122.42297708239533},
	{"name":"Pride/ Rainbow Flagpole, Harvey Milk Plaza","latitude":37.76234570856351,"longitude":-122.43528471729012},
	{"name":"St. Marks Lutheran Church","latitude":37.78418021150204,"longitude":-122.42349103049429},
	{"name":"Glazer-Keating House","latitude":37.79280625975138,"longitude":-122.41244489781133},
	{"name":"Solari Building East (Larco\nBuilding)","latitude":37.79663176747674,"longitude":-122.40299903923263},
	{"name":"Moulinie Building","latitude":37.796647630856704,"longitude":-122.40287400505028},
	{"name":"Ferry Building","latitude":37.79560973589234,"longitude":-122.39345905936544},
	{"name":"Sacred Heart Parish Complex","latitude":37.774699748004615,"longitude":-122.43015280267181},
	{"name":"Ingleside Presbyterian Church and \"The Great Cloud of Witnesses\"","latitude":37.723786832781904,"longitude":-122.45688126267288},
	{"name":"Old Fire House","latitude":37.76307463098952,"longitude":-122.46699013443728},
	{"name":"Strand Theater","latitude":37.77963484997762,"longitude":-122.41288944826755},
	{"name":"The Kerrigan House","latitude":37.75620156819202,"longitude":-122.39851997788023},
	{"name":"Turk and Taylor Streets Intersection, known as the “Site of the Compton’s Cafeteria Riot”","latitude":37.78326432800053,"longitude":-122.41082358399466},
	{"name":"Old St. Patrick's Church","latitude":37.78101594785382,"longitude":-122.43791650234992},
	{"name":"Flatiron Building","latitude":37.790056596318074,"longitude":-122.40078309595509},
	{"name":"Tobin House","latitude":37.78950979553442,"longitude":-122.426648381673},
	{"name":"Schubert Hall","latitude":37.79375454890442,"longitude":-122.42954388343733},
	{"name":"St. Charles School","latitude":37.76232303779393,"longitude":-122.4164429357938},
	{"name":"First Unitarian Church","latitude":37.785046710027636,"longitude":-122.42341369848062},
	{"name":"Filbert Street Cottages","latitude":37.80011146024997,"longitude":-122.42150353618881},
	{"name":"Old Ghirardelli Building","latitude":37.796316409409094,"longitude":-122.40225957490549},
	{"name":"Palace Hotel, Garden\nCourtyard","latitude":37.787940785986656,"longitude":-122.40193453633678},
	{"name":"Sacred Heart Parish Complex","latitude":37.77474270545712,"longitude":-122.43055167987379},
	{"name":"City Lights Bookstore","latitude":37.79760055701999,"longitude":-122.40657930119367},
	{"name":"A. Borel & Company Building","latitude":37.79347343212169,"longitude":-122.4026667505613},
	{"name":"Ortman-Shumate House","latitude":37.78756031506971,"longitude":-122.4389854370748},
	{"name":"The Potrero School","latitude":37.75853764191235,"longitude":-122.38979290541722},
	{"name":"Richard Doolan/Norman Larson Residence and Storefronts","latitude":37.7701083006686,"longitude":-122.4472495572568},
	{"name":"Dietle Residence","latitude":37.77394304383098,"longitude":-122.4255870553658},
	{"name":"Campfire Girls Building","latitude":37.78458970437297,"longitude":-122.45949148285622},
	{"name":"Swedish American Hall","latitude":37.76668376525507,"longitude":-122.43051425853022},
	{"name":"Church for the Fellowship of All People","latitude":37.79678244455742,"longitude":-122.42051076007968},
	{"name":"Paper Doll Bar","latitude":37.8008581728304,"longitude":-122.40812575617576},
	{"name":"Takahashi Trading Company","latitude":37.76697676716399,"longitude":-122.40312309415535},
	{"name":"St. John's Presbyterian Church","latitude":37.78667071177157,"longitude":-122.45968772715942},
	{"name":"Gran Oriente Filipino Complex","latitude":37.78136239704052,"longitude":-122.39348377366505},
	{"name":"Welsh Presbyterian","latitude":37.76780880069542,"longitude":-122.42325364194626},
	{"name":"The Making of a Fresco Showing the Building of a City","latitude":37.80373775975729,"longitude":-122.41719027966393},
	{"name":"Milo Hoadley Residence","latitude":37.78580658175715,"longitude":-122.44565690740704},
	{"name":"Transamerica Building/Old Fugazi\nBank","latitude":37.796014062699,"longitude":-122.403647251719},
	{"name":"First Baptist Church","latitude":37.77222813696047,"longitude":-122.42423025689327},
	{"name":"The Golden Triangle Light Standards","latitude":37.78769004123411,"longitude":-122.4066219643752},
	{"name":"Chambord Apartments","latitude":37.792491655665756,"longitude":-122.41408334851796},
	{"name":"Phelan Building","latitude":37.78645904885735,"longitude":-122.40554570749359},
	{"name":"Mother's Building","latitude":37.73472739982237,"longitude":-122.50357244342146},
	{"name":"Roos Residence","latitude":37.79042735623778,"longitude":-122.45275448269435},
	{"name":"Rincon Annex Post Office","latitude":37.79226514169474,"longitude":-122.39284751805094},
	{"name":"S.F. Curb Mining Exchange","latitude":37.79131148333323,"longitude":-122.40330374024762},
	{"name":"PG&E Old Station J","latitude":37.79408317236554,"longitude":-122.40259143364138},
	{"name":"Orders of Foresters / Baha'I Temple","latitude":37.77043082508344,"longitude":-122.42284844739417},
	{"name":"Juvenile Court and Detention Center","latitude":37.77085172259183,"longitude":-122.42063170264751},
	{"name":"The Hobart Building","latitude":37.78952535837304,"longitude":-122.40161029927367},
	{"name":"Grace Cathedral","latitude":37.7920077540552,"longitude":-122.41338323033159},
	{"name":"Hammersmith Building","latitude":37.78948309196936,"longitude":-122.40555056765601},
	{"name":"National Urban League, SF Chapter","latitude":37.78788195572412,"longitude":-122.43562167826731},
	{"name":"Drexler/Colombo Building","latitude":37.79566685804285,"longitude":-122.40385612840907},
	{"name":"Residence at 2 Claredon Avenue","latitude":37.75920270984214,"longitude":-122.4487109619966},
	{"name":"R.(Rube) L. Goldberg Building","latitude":37.77487042091477,"longitude":-122.42235597724704},
	{"name":"David Lewis House","latitude":37.752591474070556,"longitude":-122.43518910860234},
	{"name":"Richardson Hall","latitude":37.771084068008435,"longitude":-122.42559992933397},
	{"name":"Clay Theater","latitude":37.790455559976,"longitude":-122.4344802274805},
	{"name":"Gaughran House","latitude":37.75357869544766,"longitude":-122.41380925586277},
	{"name":"Doelger Building","latitude":37.76244530764335,"longitude":-122.46566240820304},
	{"name":"Alfred E.(Nobby) Clarke\nMansion","latitude":37.7596138747327,"longitude":-122.439527127797},
	{"name":"Site of Mel's Diner Sit Ins","latitude":37.7811714290958,"longitude":-122.45487982006982},
	{"name":"Islam Temple (Alcazar Theater)","latitude":37.78704663075745,"longitude":-122.41403281537063},
	{"name":"Mark Hopkins Hotel","latitude":37.79140495150241,"longitude":-122.41024821774512},
	{"name":"Feusier Octagon House/Kenny\nResidence","latitude":37.79825520488734,"longitude":-122.41668603965157},
	{"name":"Third Street Bridge","latitude":37.776817711106155,"longitude":-122.39028104543331},
	{"name":"Kezar Stadium","latitude":37.76708290684368,"longitude":-122.45574595536124},
	{"name":"Bourdette Building","latitude":37.7880411005328,"longitude":-122.40009920474233},
	{"name":"Golden Gate Conservatory","latitude":37.772463489261746,"longitude":-122.46022999834919},
	{"name":"Don Lee Automobile Showroom","latitude":37.785125773107225,"longitude":-122.42037731220194},
	{"name":"Isaac Wormser House/John C.\nColeman House","latitude":37.7903576919378,"longitude":-122.42485884471225},
	{"name":"Twin Peaks Tavern","latitude":37.762272865939664,"longitude":-122.4349468567027},
	{"name":"Trinity Episcopal Church","latitude":37.78837324826296,"longitude":-122.42491869154111},
	{"name":"Stow Lake Boathouse","latitude":37.77060022262224,"longitude":-122.47706987757219},
	{"name":"Brown's Opera House (Victoria's Theater)","latitude":37.7648588816842,"longitude":-122.41886521014199},
	{"name":"San Francisco Fire Station No. 44","latitude":37.716639965029344,"longitude":-122.40047405021261},
	{"name":"Frances Scott Key Monument","latitude":37.77125223939035,"longitude":-122.46661818707072},
	{"name":"Trocadero Clubhouse","latitude":37.7361930597111,"longitude":-122.47792405668326},
	{"name":"Diamond Heights Safety Wall","latitude":37.74659814663935,"longitude":-122.44444943790263},
	{"name":"Shipwright's Cottage","latitude":37.73224066440715,"longitude":-122.37572726891618},
	{"name":"Health Sciences Library","latitude":37.78987110389981,"longitude":-122.4319507950145},
	{"name":"Washington Square","latitude":37.80084986455005,"longitude":-122.41000933916803},
	{"name":"Grand Theater","latitude":37.75440420649365,"longitude":-122.4182922837777},
	{"name":"Sacred Heart Parish Complex","latitude":37.77454517217789,"longitude":-122.43061707959615},
	{"name":"Lilienthal-Orville Pratt House","latitude":37.79040060308281,"longitude":-122.42452123291064},
	{"name":"Arthur H. Coleman Medical Center","latitude":37.720616565859345,"longitude":-122.39605782433142},
	{"name":"Mission Cultural Center for Latino Arts","latitude":37.75101336613601,"longitude":-122.41870584938853},
	{"name":"Cadillac Hotel","latitude":37.78405388721984,"longitude":-122.41394301802043},
	{"name":"Jessie St. Substation","latitude":37.7860484038742,"longitude":-122.40379676017498},
	{"name":"Hotaling Building","latitude":37.796320149449116,"longitude":-122.40275476177179},
	{"name":"Engine Company Number 31 Fire\nHouse","latitude":37.79871298353345,"longitude":-122.41695918652411},
	{"name":"Garcia And Maggini Warehouse","latitude":37.77950653366621,"longitude":-122.39071008068335},
	{"name":"550 Market Street","latitude":37.79000255635678,"longitude":-122.40090647064139},
	{"name":"Notre Dame School","latitude":37.763858047256214,"longitude":-122.42570831351681},
	{"name":"Fire Boat House-Pier 22 1/2","latitude":37.790233231055666,"longitude":-122.38835952595201},
	{"name":"Family Service Agency","latitude":37.78276164503531,"longitude":-122.42392524865325},
	{"name":"Society For Individual Rights","latitude":37.770259663752505,"longitude":-122.44897903050779},
	{"name":"El Rey Theater","latitude":37.72636357561403,"longitude":-122.46397366513695},
	{"name":"Stanyan House","latitude":37.787663788046544,"longitude":-122.4306264852164},
	{"name":"Independent Wood Co. Building (Cargo West)","latitude":37.80153313115228,"longitude":-122.4018568380687},
	{"name":"Saint Francisc Square Cooperative Apartments","latitude":37.78391979204534,"longitude":-122.42909754887215},
	{"name":"Gibb-Sanborn Warehouse,\nTrinidad Bean & Elevator Company","latitude":37.79948596035296,"longitude":-122.40034041882349},
	{"name":"Mission Turn Hall (Women's Building)","latitude":37.76141997333654,"longitude":-122.42261862364231},
	{"name":"Sacred Heart","latitude":37.77474270464951,"longitude":-122.4305516797984},
	{"name":"Old St. Mary's Church","latitude":37.792830592333374,"longitude":-122.40572684924014},
	{"name":"Haslett Warehouse Building","latitude":37.80717479609037,"longitude":-122.42017425663214},
	{"name":"Samuel Gompers Trade School","latitude":37.75484682634549,"longitude":-122.42030417438995},
	{"name":"Talbot-Dutton House","latitude":37.794900866783735,"longitude":-122.4247124814815},
	{"name":"Palace Of Fine Arts","latitude":37.802902303833136,"longitude":-122.44834554484949},
	{"name":"Jack's Restaurant Building","latitude":37.79354700162272,"longitude":-122.40346479901442},
	{"name":"Old Spaghetti Factory Cafe","latitude":37.800022439889844,"longitude":-122.40714315280795},
	{"name":"Goodman Building/Emeric\nBuilding","latitude":37.785325372224875,"longitude":-122.42218059330982},
	{"name":"St Boniface Church","latitude":37.781677110029186,"longitude":-122.41307656839712},
	{"name":"The Joseph Leonard/Cecil F. Poole House","latitude":37.72714584138708,"longitude":-122.46888353740493},
	{"name":"San Francisco Labor Temple","latitude":37.76537222095437,"longitude":-122.41823926098817},
	{"name":"Southern Pacific Co. Hospital Complex","latitude":37.77399840766459,"longitude":-122.44186571043976},
	{"name":"Trinity Presbyterian Church","latitude":37.753660542622754,"longitude":-122.41770922742809},
	{"name":"Merryvale Antiques (S.F. Gas Light Co.)","latitude":37.80378820475599,"longitude":-122.43319457418403},
	{"name":"Edward Coleman House","latitude":37.79043048312336,"longitude":-122.42428613493999},
	{"name":"B'Nai David Chevra Mikvah Israel","latitude":37.75981726088159,"longitude":-122.42223208952494},
	{"name":"Gibbs Residence and Caretaker's Cottage","latitude":37.792213725236394,"longitude":-122.43891452304376},
	{"name":"Woods Hall Annex","latitude":37.77248441058915,"longitude":-122.42608061999631},
	{"name":"Refugee Shack","latitude":37.76462070048499,"longitude":-122.48290255840624},
	{"name":"Mission Branch Carnegie Library","latitude":37.75197154441822,"longitude":-122.4198410852283},
	{"name":"Carnegie Noe Valley/Sally Brunn Branch Library","latitude":37.75018449501105,"longitude":-122.43508910475013},
	{"name":"San Francisco City Hall","latitude":37.779272991705064,"longitude":-122.41922615533284},
	{"name":"Samuel's Clock","latitude":37.78515468564417,"longitude":-122.407099760293},
	{"name":"Savings Union Branch Of\nSec.Pac.Natl Bnk","latitude":37.78698774876012,"longitude":-122.40517625070983},
	{"name":"Dressler or Garfield Building","latitude":37.783804523546195,"longitude":-122.40886699747368},
	{"name":"Cowell House","latitude":37.74660413196684,"longitude":-122.46517363285747},
	{"name":"George Washington High School","latitude":37.777898962615495,"longitude":-122.49101323673175},
	{"name":"Sailor's Union Hall of the Pacific","latitude":37.78656276581893,"longitude":-122.39301419475991},
	{"name":"San Francsico Eagle Bar","latitude":37.76998247175993,"longitude":-122.41341960466677},
	{"name":"San Francisco Memorial Columbarium (Odd Fellows Columbarium)","latitude":37.78061276610377,"longitude":-122.45707642627599},
	{"name":"Wells Fargo Union Trust Branch","latitude":37.78710827460598,"longitude":-122.40467534774415},
	{"name":"Yeon Building","latitude":37.79668707682157,"longitude":-122.40255593916547},
	{"name":"Momo's 440 Club","latitude":37.7984265858759,"longitude":-122.40464720007094},
	{"name":"Mission San Francisco de Asis","latitude":37.76420120854133,"longitude":-122.42694978892301},
	{"name":"McMorry-Lagan Building","latitude":37.773016623675616,"longitude":-122.42535591837056},
	{"name":"War Memorial Complex","latitude":37.779055456207125,"longitude":-122.42093519921973},
	{"name":"Sherman House","latitude":37.79663807540631,"longitude":-122.4346541159785},
	{"name":"Gaylord Hotel","latitude":37.78716028928836,"longitude":-122.41288961139215},
	{"name":"Oriental Warehouse","latitude":37.78277489247241,"longitude":-122.38968834472651},
	{"name":"Grogan-Atherton-Lent Building","latitude":37.79674987812295,"longitude":-122.40205244336457},
	{"name":"Clunie House","latitude":37.77363773776578,"longitude":-122.44278343801837},
	{"name":"Federal Reserve Bank Building","latitude":37.79428947426691,"longitude":-122.4007847502447},
	{"name":"Met Life-Pacific Coast Head Office","latitude":37.79184504971386,"longitude":-122.40682904226297},
	{"name":"SF Galvanizing Works","latitude":37.7743985443475,"longitude":-122.40813195516246},
	{"name":"University Mound Old Ladies Home","latitude":37.725526041250326,"longitude":-122.41420746647779},
	{"name":"Old Mish House","latitude":37.77274606493872,"longitude":-122.43823141143346},
	{"name":"Chambers Mansion","latitude":37.7906070438544,"longitude":-122.4300878991044},
	{"name":"Clay Street Center","latitude":37.79365463498125,"longitude":-122.40903118289933},
	{"name":"Spreckels Mansion","latitude":37.792920067717475,"longitude":-122.42747516465384},
	{"name":"Bauer & Schweitzer Malting Company","latitude":37.80436189194353,"longitude":-122.4124476497712},
	{"name":"Sunnyside Conservatory","latitude":37.73185082392633,"longitude":-122.44077336785776},
	{"name":"Jones-Thierbach Coffee Company Building","latitude":37.795554172488856,"longitude":-122.400728704637},
	{"name":"Music Concourse","latitude":37.77070322068229,"longitude":-122.46749562788696},
	{"name":"Orpheum Theater Building","latitude":37.779332101679394,"longitude":-122.41465332995527},
	{"name":"Sylvester House","latitude":37.73134898862497,"longitude":-122.38907461479268},
	{"name":"Castro Camera and Harvey Milk Residence","latitude":37.75977530395745,"longitude":-122.43453520624428},
	{"name":"Hotaling Annex West","latitude":37.796343059205896,"longitude":-122.40301685649798},
	{"name":"El Capitan Theater & Hotel","latitude":37.75924029592278,"longitude":-122.418544170628},
	{"name":"Nightingale House","latitude":37.771825477626976,"longitude":-122.42720303475589},
	{"name":"Buich Building/Tadich Grill","latitude":37.793561194473526,"longitude":-122.39948211899414},
	{"name":"Bourne Mansion","latitude":37.79412387921651,"longitude":-122.43290498425668},
	{"name":"Woods Hall","latitude":37.77229396788996,"longitude":-122.42674893900212},
	{"name":"F.V. Wilbert Tool\nManufacturing Shop","latitude":37.787359358844064,"longitude":-122.39398506552544},
	{"name":"Congregation Emanu-El School Buildings","latitude":37.787201246539716,"longitude":-122.4223967593266},
	{"name":"I. Magnin & Company Building","latitude":37.78699735744885,"longitude":-122.40717487631849},
	{"name":"Parkside Branch Library","latitude":37.74379499866923,"longitude":-122.48004271654885},
	{"name":"Quinn House","latitude":37.73572809726908,"longitude":-122.38845552448369},
	{"name":"Metro Theater","latitude":37.7971128183134,"longitude":-122.43307087817256},
	{"name":"Atherton House","latitude":37.79007443226279,"longitude":-122.42708656080909},
	{"name":"Tanforan Cottage","latitude":37.76579732853475,"longitude":-122.42703751311254},
	{"name":"Wolski House","latitude":37.78805337467875,"longitude":-122.45298190318199},
	{"name":"Shriners' Hospital for Crippled Children","latitude":37.757265910056596,"longitude":-122.47722116237027},
	{"name":"Alemany Emergency Hospital And Health Center","latitude":37.721320632051494,"longitude":-122.43842775433178},
	{"name":"Saint Francis Lutheran Church","latitude":37.7685777985841,"longitude":-122.42941651955},
	{"name":"Cable Car Barn And Power House","latitude":37.79483027002554,"longitude":-122.41191560229453},
	{"name":"Fire Station 2","latitude":37.79090693413639,"longitude":-122.40510847041949},
	{"name":"Sharon Building","latitude":37.768055171160206,"longitude":-122.45816050540424},
	{"name":"Donaldina Cameron House","latitude":37.7933522456133,"longitude":-122.40841039517078},
	{"name":"\"Pan American Unity\" Mural at City College","latitude":37.725740782384314,"longitude":-122.44986760839056},
	{"name":"Glide Memorial Church","latitude":37.78522430623909,"longitude":-122.41144002932114},
	{"name":"William Vale House","latitude":37.78955201745351,"longitude":-122.43114043764437},
	{"name":"Colonial Dames Octagon\nHouse","latitude":37.79786353392679,"longitude":-122.42744412743335},
	{"name":"House Of The Flag; Old Sheppard-Dakin Hs","latitude":37.79782508026525,"longitude":-122.41349716891199},
	{"name":"Firehouse Engine Company No.\n23","latitude":37.79069751208971,"longitude":-122.44353191502583},
	{"name":"Kinmon Gakuen","latitude":37.78708966073901,"longitude":-122.43058973028019},
	{"name":"Presidio Branch Carnegie Library","latitude":37.788910973593694,"longitude":-122.44485234801088},
	{"name":"Marcus Books and Jimbo's Bop City","latitude":37.78547169291699,"longitude":-122.43286457509488},
	{"name":"Colombo Market Arch","latitude":37.79745517093543,"longitude":-122.39901122214873},
	{"name":"Sentinel Building/Columbus\nTower","latitude":37.796534873585664,"longitude":-122.40502123594099},
	{"name":"Delta House / Bayanihan House","latitude":37.78092169930648,"longitude":-122.40916383865098},
	{"name":"Lotta's Fountain","latitude":37.787910864395,"longitude":-122.40332290852534},
	{"name":"The Sharon Building","latitude":37.788226622714916,"longitude":-122.40095543117012},
	{"name":"Far East Cafe","latitude":37.79298985837261,"longitude":-122.40636741004913},
	{"name":"The Archbishop's Mansion","latitude":37.777644007697916,"longitude":-122.43360907274237},
	{"name":"Rothschild House","latitude":37.78279961533355,"longitude":-122.42362715132543},
	{"name":"Galeria De La Raza","latitude":37.75251837995176,"longitude":-122.40933528444509},
	{"name":"The Old U.S. Mint","latitude":37.78274306714004,"longitude":-122.40720317969465},
	{"name":"Stadtmuller House","latitude":37.78252376030141,"longitude":-122.42167101339703},
	{"name":"Carmel Fallon Building","latitude":37.77177760602913,"longitude":-122.42402830587162},
	{"name":"Italian Swiss Colony\nWarehouse Building","latitude":37.802861145414475,"longitude":-122.40226700597901},
	{"name":"Alhambra Theater","latitude":37.798340707660856,"longitude":-122.42186163250975},
	{"name":"Burr House","latitude":37.79661778775593,"longitude":-122.42639309213784},
	{"name":"Benedict-Gieling House","latitude":37.76524261271381,"longitude":-122.43415419744903},
	{"name":"Chinatown Branch Carnegie Library","latitude":37.7952259487165,"longitude":-122.41018190131699},
	{"name":"Crown Zellerbach Building","latitude":37.790850716631894,"longitude":-122.40014467635382},
	{"name":"Regency House - Ghirardelli\nAnnex","latitude":37.796316409409094,"longitude":-122.40225957490543},
	{"name":"High School Of Commerce","latitude":37.77672504459703,"longitude":-122.42046488752707},
	{"name":"Old Flood Mansion -Pacific Union Club","latitude":37.792259631154934,"longitude":-122.41139745327524},
	{"name":"Chronicle Building","latitude":37.78824797764502,"longitude":-122.40323221319746},
	{"name":"The New Mission Theater","latitude":37.75601879285609,"longitude":-122.41940709521394},
	{"name":"Dunham, Carrigan & Hayden Building","latitude":37.76911222152144,"longitude":-122.40442437049181},
	{"name":"Old Holy Virgin Russian Orthodox Church","latitude":37.77806636735655,"longitude":-122.43095008427956},
	{"name":"Solari Building West","latitude":37.79662061501309,"longitude":-122.40309317219555},
	{"name":"Abner Phelps House","latitude":37.772767952912375,"longitude":-122.43806063051872},
	{"name":"McLaren Lodge","latitude":37.77184266427149,"longitude":-122.4547156136025},
	{"name":"U.S. Mint & Subtreasury\nBuilding","latitude":37.79439332913113,"longitude":-122.40343833434751},
	{"name":"Home Telephone Company","latitude":37.79015042543819,"longitude":-122.40586965048894},
	{"name":"Oakley Residence & Flats","latitude":37.75335877736681,"longitude":-122.42438095847088},
	{"name":"Baker & Hamilton Building","latitude":37.77112488756309,"longitude":-122.40166325006436},
	{"name":"Piledrivers, Bridge, And Structural Inonworkers Local No. 77 Union Hall","latitude":37.78189789991029,"longitude":-122.39470775548065},
	{"name":"Hoffman's Grill","latitude":37.788660142025414,"longitude":-122.40140602945031},
	{"name":"Alcoa Building","latitude":37.79560696442138,"longitude":-122.39922677468364},
	{"name":"Engine Co. #37, Truck Co. #9","latitude":37.751691048784224,"longitude":-122.40357049829335},
	{"name":"Golden Era Building","latitude":37.79622785837018,"longitude":-122.40312549165624}
]
